[
  {
    "baths": 3,
    "beds": 4,
    "description": "A sample house",
    "images": [
      "https://cah-com-res.cloudinary.com/c_thumb,h_500,w_1000/production/marketing-photos/16802/s6qkfekj4a7g2skhdui6",
      "https://cah-com-res.cloudinary.com/c_thumb,h_500,w_1000/production/marketing-photos/16802/q4o9kjxmudjuuqumrakn"
    ],
    "location": {
      "country": {
        "countryCode": "US",
        "name": "United States"

      },
      "region": "NV",
      "city": "Las Vegas",
      "suburb": "Sampleville",
      "address": "4559 Sparwood Drive",
      "postcode": "89147"
    },
    "area": 2219,
    "price": 1450
  },
  {
    "baths": 1,
    "beds": 2,
    "description": "A sample house",
    "images": [
      "https://cah-com-res.cloudinary.com/c_thumb,h_500,w_1000/production/marketing-photos/16802/s6qkfekj4a7g2skhdui6",
      "https://cah-com-res.cloudinary.com/c_thumb,h_500,w_1000/production/marketing-photos/16802/q4o9kjxmudjuuqumrakn"
    ],
    "location": {
      "country": {
        "countryCode": "US",
        "name":  "United States"
      },
      "region": "NV",
      "city": "Las Vegas",
      "suburb": "Sampleville",
      "address": "4559 Sparwood Drive",
      "postcode": "89147"


    },
    "area": 2219,
    "price": 12000
  },
  {
    "baths": 4,
    "beds": 5,
    "description": "A sample house",
    "images": [
      "https://cah-com-res.cloudinary.com/c_thumb,h_500,w_1000/production/marketing-photos/16802/s6qkfekj4a7g2skhdui6",
      "https://cah-com-res.cloudinary.com/c_thumb,h_500,w_1000/production/marketing-photos/16802/q4o9kjxmudjuuqumrakn"
    ],
    "location": {
      "country": {
        "name": "United States",
        "countryCode": "US"
      },
      "region": "NV",
      "city": "Las Vegas",
      "suburb": "Sampleville",
      "address": "4559 Sparwood Drive",
      "postcode": "89147"
    },
    "area": 3219,
    "price": 16000
  },
  {
    "area": 2219,
    "baths": 1,
    "beds": 1,
    "description": "A sample house",
    "images": [
      "https://cah-com-res.cloudinary.com/c_thumb,h_500,w_1000/production/marketing-photos/16802/s6qkfekj4a7g2skhdui6",
      "https://cah-com-res.cloudinary.com/c_thumb,h_500,w_1000/production/marketing-photos/16802/q4o9kjxmudjuuqumrakn"
    ],
    "location": {
      "country": {
        "name": "United States",
        "countryCode": "US"
      },
      "region": "NV",
      "city": "Las Vegas",
      "suburb": "Sampleville",
      "address": "4559 Sparwood Drive",
      "postcode": "89147"
    },
    "price": 4000
  }
]